City_ID,City,Lat,Lng,Max Temp,Humidity,Cloudiness,Wind Speed,Country,Date
0,edinburgh of the seven seas,-37.0676,-12.3116,17.56,93,100,3.35,SH,1712857067
1,blythe,33.6103,-114.5964,27.25,16,0,3.09,US,1712857067
2,tiksi,71.6872,128.8694,-28.37,96,24,6.34,RU,1712857068
3,bonthe,7.5264,-12.505,28.74,67,92,4.56,SL,1712856898
4,port-aux-francais,-49.35,70.2167,6.14,96,98,6.48,TF,1712857069
5,bandarbeyla,9.4942,50.8122,28.35,81,18,3.93,SO,1712857070
6,bamboo flat,11.7,92.7167,29.05,84,77,1.03,IN,1712857071
7,ilulissat,69.2167,-51.1,-5.99,73,75,2.06,GL,1712857072
8,ushuaia,-54.8,-68.3,8.79,61,0,11.83,AR,1712857060
9,iqaluit,63.7506,-68.5145,-2.15,68,100,2.57,CA,1712857073
10,puerto baquerizo moreno,-0.9,-89.6,28.55,79,40,2.57,EC,1712857074
11,pingliang,35.5392,106.6861,13.06,65,0,1.78,CN,1712857074
12,shihezi,44.3,86.0333,14.58,48,52,2.64,CN,1712857075
13,assab,13.0092,42.7394,28.17,81,67,5.93,ER,1712857076
14,kavaratti,10.5669,72.642,29.29,71,0,3.6,IN,1712857076
15,puerto natales,-51.7236,-72.4875,10.25,57,0,2.06,CL,1712857077
16,san carlos,9.6612,-68.5827,38.68,23,20,2.43,VE,1712857078
17,wailua homesteads,22.0669,-159.378,23.24,91,75,1.54,US,1712857008
18,cidreira,-30.1811,-50.2056,19.83,87,100,8.51,BR,1712857080
19,port mathurin,-19.6833,63.4167,27.21,76,28,3.61,MU,1712857080
20,nar'yan-mar,67.6713,53.087,1.73,100,100,7.6,RU,1712857081
21,college,64.8569,-147.8028,2.32,66,100,3.09,US,1712856852
22,grytviken,-54.2811,-36.5092,0.82,74,46,5.34,GS,1712857083
23,adamstown,-25.066,-130.1015,21.43,56,81,8.29,PN,1712857083
24,longyearbyen,78.2186,15.6401,-13.09,61,0,3.09,SJ,1712857084
25,puebla de la calzada,38.8793,-6.627,26.95,44,0,2.57,ES,1712857085
26,illizi,26.4833,8.4667,29.89,17,0,8.58,DZ,1712857086
27,east london,-33.0153,27.9116,15.52,77,75,9.77,ZA,1712857087
28,talnakh,69.4865,88.3972,-25.19,98,90,2.68,RU,1712857088
29,usogorsk,63.4106,48.6872,4.81,100,100,7.19,RU,1712857089
30,porto novo,6.4965,2.6036,30.9,74,96,4.42,BJ,1712857062
31,bilibino,68.0546,166.4372,-21.96,100,95,0.75,RU,1712857091
32,tvoroyri,61.5556,-6.8111,9.08,88,93,15.63,FO,1712857092
33,waitangi,-43.9535,-176.5597,16.01,95,55,3.13,NZ,1712857093
34,heber city,40.5069,-111.4132,15.9,33,3,0.45,US,1712857093
35,port alfred,-33.5906,26.891,14.54,87,81,1.79,ZA,1712856825
36,alaior,39.9303,4.1404,14.86,72,20,10.29,ES,1712857095
37,badger,64.8,-147.5333,2.27,70,100,3.09,US,1712857095
38,eldorado at santa fe,35.5264,-105.9347,14.79,33,0,6.69,US,1712857096
39,arar,30.9753,41.0381,21.01,32,0,2.06,SA,1712857097
40,egilsstadir,65.2653,-14.3948,0.95,93,75,7.2,IS,1712857097
41,punta gorda,26.9298,-82.0454,29.03,84,75,11.32,US,1712856811
42,barcelos,41.5388,-8.6151,24.08,70,98,2.06,PT,1712857099
43,mirny,62.5353,113.9611,-21.54,100,81,1.79,RU,1712857100
44,qaqortoq,60.7167,-46.0333,-2.73,75,92,2.02,GL,1712857100
45,manfalut,27.3104,30.97,25.14,25,0,3.94,EG,1712857101
46,la passe,45.5549,-0.8967,18.13,85,88,3.54,FR,1712857102
47,pontassieve,43.7737,11.4282,20.63,57,0,2.57,IT,1712857102
48,cabedelo,-6.9811,-34.8339,32.37,75,100,4.27,BR,1712857103
49,pachino,36.7186,15.0907,15.76,74,72,3.45,IT,1712857104
50,tromso,69.6496,18.957,3.01,87,100,2.06,NO,1712856900
51,mount pearl,47.5166,-52.7813,5.18,69,20,5.14,CA,1712856839
52,okhotsk,59.3833,143.3,-4.89,97,60,2.28,RU,1712857106
53,huarmey,-10.0681,-78.1522,25.59,71,91,4.85,PE,1712857107
54,saipan,15.1355,145.701,27.39,83,40,5.66,MP,1712857107
55,kiunga,-6.1219,141.2906,23.4,100,100,1.07,PG,1712857108
56,st. john's,47.5649,-52.7093,5.64,70,20,5.14,CA,1712856833
57,black river,18.0264,-77.8487,32.03,57,66,10.29,JM,1712857109
58,gisborne,-38.6533,178.0042,19.05,77,100,4.79,NZ,1712857110
59,kodiak,57.79,-152.4072,-2.27,86,100,2.06,US,1712857111
60,colonia,50.9333,6.95,17.13,71,40,2.57,DE,1712856916
61,praia da vitoria,38.7333,-27.0667,20.14,77,40,2.51,PT,1712856838
62,hawaiian paradise park,19.5933,-154.9731,21.69,98,100,3.6,US,1712857113
63,kilju,40.9642,129.3278,9.19,74,9,1.15,KP,1712857114
64,hamilton,39.1834,-84.5333,19.08,91,100,4.12,US,1712856378
65,karagandy,49.8019,73.1021,-0.03,79,85,4.89,KZ,1712857115
66,moires,35.0532,24.8744,17.42,61,62,2.23,GR,1712857116
67,la'ie,21.6477,-157.9253,23.39,84,100,1.79,US,1712857116
68,essaouira,31.5125,-9.77,31.72,35,8,2.57,MA,1712857117
69,tual,-5.6667,132.75,28.46,67,69,1.9,ID,1712857118
70,el alto,-4.2714,-81.2147,29.81,70,59,2.7,PE,1712857118
71,bel ombre,-4.6167,55.4167,25.91,89,20,1.54,SC,1712857119
72,ancud,-41.8697,-73.8203,14.79,51,0,1.94,CL,1712857120
73,vorgashor,67.5833,63.95,-12.33,82,100,11.34,RU,1712857120
74,vila franca do campo,37.7167,-25.4333,18.27,99,8,2.88,PT,1712857121
75,yellowknife,62.456,-114.3525,1.9,83,75,5.14,CA,1712856959
76,alexandria,31.2156,29.9553,18.99,69,0,3.68,EG,1712856533
77,espumoso,-28.7247,-52.8497,18.69,93,100,4.48,BR,1712856846
78,galliano,29.4422,-90.2992,18.89,63,100,9.26,US,1712857124
79,valdivia,-39.8142,-73.2459,17.05,37,21,1.63,CL,1712857125
80,vung tau,10.346,107.0843,27.57,82,18,10.86,VN,1712857125
81,ciudad rodrigo,40.6,-6.5333,18.72,74,31,3.04,ES,1712857126
82,ketchikan,55.3422,-131.6461,5.26,87,100,2.06,US,1712856938
83,kidal,18.4411,1.4078,37.26,7,100,1.46,ML,1712857128
84,kuta,-8.7233,115.1723,27.97,88,20,1.03,ID,1712857129
85,joplin,37.0842,-94.5133,15.97,48,40,10.8,US,1712857036
86,beterou,9.1992,2.2586,34.18,40,89,4.41,BJ,1712857131
87,pisco,-13.7,-76.2167,24.03,83,37,5.14,PE,1712857131
88,bethel,41.3712,-73.414,13.06,88,100,4.63,US,1712856838
89,georgetown,5.4112,100.3354,29.41,81,20,1.03,MY,1712857133
90,isafjordur,66.0755,-23.124,2.02,69,100,7.2,IS,1712857134
91,rabigh,22.7986,39.0349,25.53,48,4,5.57,SA,1712857135
92,san-pedro,4.7485,-6.6363,27.86,76,90,3.69,CI,1712857135
93,grand falls-windsor,48.9332,-55.6649,10.84,33,0,1.79,CA,1712857136
94,alice springs,-23.7,133.8833,13.45,49,2,0.45,AU,1712857137
95,ushtobe,45.2514,77.9838,12.16,60,85,2.07,KZ,1712857137
96,ola,59.5833,151.2833,-7.7,90,36,2.22,RU,1712857138
97,lihue,21.9789,-159.3672,23.58,89,75,1.54,US,1712857139
98,igarka,67.4667,86.5833,-28.32,100,23,2.24,RU,1712857140
99,invercargill,-46.4,168.35,7.79,87,100,0.45,NZ,1712857141
100,balotra,25.8333,72.2333,29.87,28,5,3.47,IN,1712857141
101,bubaque,11.2833,-15.8333,24.4,71,0,9.02,GW,1712857142
102,keflavik,64.0049,-22.5624,7.95,81,100,9.26,IS,1712857143
103,andrychow,49.855,19.3383,14.4,90,47,1.9,PL,1712857144
104,udachny,66.4167,112.4,-28.08,100,77,2.23,RU,1712857144
105,anadyr,64.75,177.4833,-15.72,77,0,3.0,RU,1712857145
106,khandyga,62.6667,135.6,-1.99,89,100,2.94,RU,1712857146
107,huaraz,-9.5333,-77.5333,17.09,70,86,3.03,PE,1712857065
108,lundazi,-12.2929,33.1782,19.74,94,63,3.09,ZM,1712857147
109,savelugu,9.6244,-0.8253,38.47,25,82,2.2,GH,1712857148
110,luderitz,-26.6481,15.1594,21.0,55,1,3.19,NA,1712857149
111,khabary,53.6259,79.5345,-2.1,62,88,5.47,RU,1712857149
112,acarau,-2.8856,-40.12,28.21,81,98,3.31,BR,1712856927
113,albany,42.6001,-73.9662,13.3,81,100,1.79,US,1712857094
114,cabeza del buey,38.7223,-5.2195,19.71,62,19,3.2,ES,1712857151
115,aykhal,66.0,111.5,-28.9,100,99,2.68,RU,1712857152
116,ixtapa,20.7,-105.2,24.57,61,75,3.6,MX,1712857154
117,coquimbo,-29.9533,-71.3436,13.85,94,100,3.6,CL,1712857047
118,taroa,8.7058,171.2275,27.32,80,86,9.02,MH,1712856882
119,hermanus,-34.4187,19.2345,14.89,70,5,8.26,ZA,1712857155
120,bredasdorp,-34.5322,20.0403,14.88,67,0,5.13,ZA,1712857157
121,kroonstad,-27.6504,27.2349,15.18,36,0,1.66,ZA,1712857158
122,brookings,44.3114,-96.7984,7.88,83,100,10.8,US,1712857154
123,fonte boa,-2.4959,-66.2662,29.95,78,99,1.13,BR,1712857159
124,kailua-kona,19.6406,-155.9956,25.89,86,20,0.0,US,1712856978
125,avarua,-21.2078,-159.775,27.03,89,20,6.17,CK,1712857160
126,mugia,43.1041,-9.2179,19.95,77,93,0.36,ES,1712857161
127,prince rupert,54.3161,-130.3201,5.05,87,100,7.2,CA,1712856912
128,mejit,10.2753,170.8646,26.58,76,100,8.86,MH,1712857162
129,laguna,38.421,-121.4238,25.54,62,0,0.0,US,1712857089
130,puerto ayora,-0.7393,-90.3518,29.98,93,52,0.89,EC,1712857164
131,olonkinbyen,70.9221,-8.7187,-8.24,70,100,4.17,SJ,1712857164
132,palasa,18.7667,84.4167,26.26,74,12,2.11,IN,1712857165
133,mora,11.0461,14.1401,35.06,8,66,3.23,CM,1712857166
134,san patricio,28.017,-97.5169,28.97,20,0,5.51,US,1712857166
135,blackmans bay,-43.0167,147.3167,10.07,86,99,0.89,AU,1712857167
136,ribeira grande,38.5167,-28.7,17.22,88,75,4.47,PT,1712857168
137,buka,40.8108,69.1986,17.27,66,100,3.14,UZ,1712857168
138,whitehorse,60.7161,-135.0538,3.39,59,20,2.57,CA,1712857169
139,masterton,-40.9597,175.6575,19.38,94,99,4.19,NZ,1712857170
140,popondetta,-8.7537,148.2534,23.69,95,92,1.02,PG,1712857171
141,dhuusamarreeb,5.535,46.3861,30.21,46,100,9.29,SO,1712857171
142,gounou gaya,9.6294,15.5132,38.34,15,73,2.22,TD,1712857172
143,ust-nera,64.5667,143.2,-14.36,97,82,2.99,RU,1712857173
144,rikaze,29.25,88.8833,2.84,26,39,1.77,CN,1712857173
145,petropavlovsk-kamchatsky,53.0452,158.6483,-0.67,71,0,11.62,RU,1712857174
146,kalmunai,7.4167,81.8167,27.27,83,80,3.14,LK,1712857175
147,labytnangi,66.6572,66.4183,-9.79,86,100,8.53,RU,1712857175
148,ghanzi,-21.5667,21.7833,22.83,25,95,3.64,BW,1712857176
149,weno,7.4515,151.8468,26.97,89,100,1.54,FM,1712857177
150,kingston,17.997,-76.7936,31.76,64,20,11.83,JM,1712856970
151,vilyuchinsk,52.9306,158.4028,0.15,82,15,4.78,RU,1712857178
152,bisbee,31.4482,-109.9284,21.87,15,0,4.47,US,1712857179
153,mufumbwe,-13.6833,24.8,20.51,89,98,1.61,ZM,1712857179
154,barguzin,53.6167,109.6167,0.35,93,72,0.97,RU,1712857180
155,port douglas,-16.4833,145.4667,22.61,76,23,3.42,AU,1712857181
156,nalut,30.3333,10.85,26.57,15,87,8.2,LY,1712857181
157,sona,45.4388,10.8255,20.7,56,0,2.57,IT,1712857182
158,velikiye luki,56.34,30.5452,9.97,54,51,3.62,RU,1712857183
159,ilhabela,-23.7781,-45.3581,25.77,83,86,2.14,BR,1712857183
160,vila velha,-20.3297,-40.2925,30.97,79,20,4.12,BR,1712856379
161,happy valley-goose bay,53.3168,-60.3315,13.17,14,40,5.14,CA,1712857186
162,hithadhoo,-0.6,73.0833,28.84,74,55,1.77,MV,1712857186
163,taiynsha,53.8478,69.7639,1.09,90,82,2.7,KZ,1712857187
164,yanggu,36.1106,115.7753,16.04,89,91,4.09,CN,1712857188
165,harper,4.375,-7.7169,27.81,82,100,3.52,LR,1712857189
166,yuzhno-kurilsk,44.0306,145.8556,4.65,76,100,3.9,RU,1712857189
167,dongargarh,21.2,80.7333,27.78,45,70,1.63,IN,1712857190
168,lockwood,45.8191,-108.4149,11.22,44,20,2.06,US,1712857191
169,margaret river,-33.95,115.0667,14.4,72,5,5.88,AU,1712857192
170,stanley,54.868,-1.6985,14.77,78,20,6.17,GB,1712857192
171,vadso,70.0744,29.7487,2.09,80,40,3.6,NO,1712857193
172,george town,5.4112,100.3354,29.41,81,20,1.03,MY,1712856937
173,kinna,57.5073,12.6946,12.08,90,88,5.89,SE,1712857194
174,hasaki,35.7333,140.8333,14.05,73,100,4.46,JP,1712857195
175,berezovyy,51.6667,135.7,0.88,65,0,2.22,RU,1712857196
176,vinh yen,21.31,105.5967,24.97,96,100,2.97,VN,1712857197
177,tolanaro,-25.0319,46.9987,24.04,83,40,3.09,MG,1712857197
178,zaoyang,32.1272,112.7542,13.94,93,10,1.87,CN,1712857198
179,launceston,-41.45,147.1667,8.42,93,40,2.06,AU,1712857199
180,nagqu,31.5,92.0,-1.76,50,100,4.74,CN,1712857199
181,santa ana de yacuma,-13.75,-65.4333,32.97,62,40,6.17,BO,1712857200
182,mount gambier,-37.8333,140.7667,12.97,60,95,1.59,AU,1712857201
183,west island,-12.1568,96.8225,26.99,78,40,3.09,CC,1712857201
184,greymouth,-42.4667,171.2,15.0,95,83,2.67,NZ,1712857202
185,constantia,44.1833,28.65,16.5,70,1,1.13,RO,1712856938
186,richfield,44.8833,-93.283,15.14,54,75,7.72,US,1712857003
187,kongsberg,59.6652,9.6465,15.06,86,10,2.41,NO,1712857205
188,nantucket,41.2835,-70.0995,10.08,99,100,4.63,US,1712857098
189,sinan,34.8262,126.1086,12.06,95,100,3.71,KR,1712857207
190,plastun,44.7561,136.2939,5.59,85,77,0.7,RU,1712857207
191,amos,48.5669,-78.1162,12.72,59,100,2.75,CA,1712856913
192,auki,-8.7676,160.7034,24.47,87,99,1.47,SB,1712857209
193,beyneu,45.3167,55.2,12.51,59,1,7.5,KZ,1712857209
194,crane,31.3974,-102.3501,22.9,18,0,4.37,US,1712857210
195,tamandare,-8.7597,-35.1047,29.32,70,88,3.87,BR,1712857142
196,peskovka,59.0448,52.3606,8.21,84,96,4.42,RU,1712857212
197,luanda,-8.8368,13.2343,28.0,81,40,5.14,AO,1712856847
198,sept-iles,50.2001,-66.3821,2.25,84,100,6.69,CA,1712856936
199,ghadamis,30.1337,9.5007,22.6,31,8,12.89,LY,1712857214
200,gaalkacyo,6.7697,47.4308,28.35,63,30,9.79,SO,1712857215
201,kupang,-10.1667,123.5833,26.32,94,100,2.57,ID,1712857216
202,moncton,46.1159,-64.8019,7.68,76,100,4.63,CA,1712857068
203,margate,51.3813,1.3862,16.04,79,100,3.58,GB,1712857206
204,mocajuba,-2.5842,-49.5072,29.54,66,96,1.67,BR,1712857218
205,kani keli,-12.9536,45.1033,28.59,72,100,2.45,YT,1712857219
206,cabo san lucas,22.8909,-109.9124,28.61,40,20,2.06,MX,1712857137
207,thompson,55.7435,-97.8558,2.09,69,75,4.63,CA,1712857221
208,ovalle,-30.5983,-71.2003,24.54,39,1,2.77,CL,1712857221
209,tupaciguara,-18.5922,-48.705,29.25,50,87,2.4,BR,1712857048
210,escanaba,45.7453,-87.0646,16.95,51,20,4.63,US,1712857223
211,sitka,57.0531,-135.33,2.94,87,20,0.0,US,1712857224
212,sharlyk,52.9167,54.75,10.29,67,100,4.7,RU,1712857224
213,pamandzi,-12.7967,45.2794,28.88,84,0,2.06,YT,1712857225
214,olonets,60.9847,32.9698,4.52,66,54,7.78,RU,1712857226
215,aksu,41.1231,80.2644,17.49,19,36,2.18,CN,1712857227
216,bantay,17.5847,120.3892,26.94,79,8,3.12,PH,1712857227
217,kitgum,3.2783,32.8867,24.08,69,65,0.62,UG,1712857228
218,tres arroyos,-38.3739,-60.2798,15.28,45,100,3.57,AR,1712857229
219,afaahiti,-17.75,-149.2833,26.93,85,66,7.75,PF,1712857229
220,harrismith,-28.2728,29.1295,8.5,88,53,2.28,ZA,1712857230
221,katabu,-4.9333,122.5167,23.96,96,99,0.49,ID,1712857231
222,harar,9.3094,42.1258,20.95,49,39,0.84,ET,1712857231
223,punta arenas,-53.15,-70.9167,10.06,53,0,7.2,CL,1712857232
224,jeddah,21.5169,39.2192,26.92,47,0,6.17,SA,1712856950
225,darwin,-12.4611,130.8418,24.99,63,78,3.09,AU,1712857125
226,aioun,16.6614,-9.6149,40.68,10,83,4.79,MR,1712857234
227,jamestown,42.097,-79.2353,20.77,74,100,5.36,US,1712857000
228,susice,49.2311,13.5202,13.55,75,3,0.56,CZ,1712857235
229,vereshchagino,58.0789,54.6557,9.24,91,100,6.16,RU,1712857236
230,mukalla,14.5425,49.1242,26.96,69,7,1.07,YE,1712857236
231,seydi,39.4816,62.9137,23.36,26,98,4.1,TM,1712857237
232,horta,38.5333,-28.6333,16.8,91,75,4.47,PT,1712857239
233,portland,45.5234,-122.6762,13.78,73,75,1.34,US,1712856592
234,newman,37.3138,-121.0208,23.9,65,38,1.34,US,1712857240
235,macclenny,30.2822,-82.1221,23.77,87,99,6.69,US,1712856945
236,guerrero negro,27.9769,-114.0611,23.5,39,65,3.69,MX,1712856980
237,winkler,49.1817,-97.941,10.12,57,96,6.17,CA,1712857243
238,broken hill,-31.95,141.4333,12.2,61,2,3.49,AU,1712857062
239,spring creek,40.7266,-115.5859,13.5,44,3,2.72,US,1712857244
240,puerto san jose,13.9256,-90.8244,34.03,49,20,3.09,GT,1712857245
241,kaspiyskiy,45.3929,47.3707,14.17,63,76,3.76,RU,1712857246
242,tommot,58.9564,126.2925,-6.87,95,97,1.26,RU,1712857246
243,port elizabeth,-33.918,25.5701,16.17,80,0,4.12,ZA,1712857247
244,ambatondrazaka,-17.8333,48.4167,22.38,85,82,0.76,MG,1712857248
245,dinajpur,25.6272,88.6386,27.47,29,57,3.5,BD,1712857248
246,paradip garh,20.3167,86.6167,27.71,49,40,1.11,IN,1712857249
247,mutsu,41.2894,141.2169,8.89,64,100,0.54,JP,1712857250
248,golere,16.2557,-14.1017,42.41,10,2,2.84,SN,1712857251
249,chonchi,-42.6128,-73.8092,16.56,45,0,1.21,CL,1712857251
250,aasiaat,68.7098,-52.8699,-4.98,82,100,1.54,GL,1712857252
251,minas de marcona,-15.2119,-75.1103,23.78,54,6,5.82,PE,1712857253
252,yass,-34.8333,148.9167,10.28,96,0,2.87,AU,1712857253
253,murzuq,25.9155,13.9184,26.72,12,26,6.69,LY,1712857254
254,ugoofaaru,5.6667,73.0,29.45,76,21,4.64,MV,1712857255
255,utrik,11.2278,169.8474,26.64,75,97,9.36,MH,1712857255
256,howrah,22.5892,88.3103,30.05,61,40,0.0,IN,1712857256
257,al jawf,29.5,38.75,21.48,31,0,4.34,SA,1712857257
258,rio verde de mato grosso,-18.9181,-54.8442,28.41,74,100,1.77,BR,1712857258
259,iskateley,67.6803,53.1512,1.68,100,100,7.6,RU,1712857258
260,yamada,39.4667,141.95,8.43,86,100,2.91,JP,1712857259
261,taoudenni,22.6783,-3.9836,36.27,9,0,7.44,ML,1712857261
262,whangarei,-35.7317,174.3239,19.16,96,98,1.93,NZ,1712857089
263,cole harbour,44.6724,-63.4751,8.66,68,95,2.68,CA,1712857262
264,prince albert,53.2001,-105.7677,3.97,65,75,4.63,CA,1712857256
265,altai,46.3722,96.2583,0.18,63,67,9.64,MN,1712857263
266,uturoa,-16.7333,-151.4333,28.62,78,46,7.02,PF,1712857264
267,bandundu,-3.3167,17.3667,28.41,63,82,0.67,CD,1712857265
268,katsuura,35.1333,140.3,14.29,81,100,3.5,JP,1712857266
269,richards bay,-28.783,32.0377,20.27,60,20,6.85,ZA,1712857158
270,tindouf,27.6711,-8.1474,35.25,7,0,2.06,DZ,1712857267
271,nemuro,43.3236,145.575,4.06,96,100,7.17,JP,1712857268
272,qalat,32.1058,66.9083,20.09,25,100,2.44,AF,1712857269
273,urangan,-25.3,152.9,17.89,89,6,3.58,AU,1712857048
274,umm as sahik,26.6536,49.9164,27.08,48,63,4.36,SA,1712857270
275,kapa'a,22.0752,-159.319,23.99,92,75,1.54,US,1712857271
276,kruisfontein,-34.0033,24.7314,14.94,72,33,2.29,ZA,1712857271
277,yaransk,57.3033,47.8861,9.42,71,70,5.54,RU,1712857273
278,quang ngai,15.1167,108.8,22.83,92,90,1.87,VN,1712857274
279,sirte,31.2089,16.5887,17.77,78,68,4.23,LY,1712857274
280,tsiombe,-25.3,45.4833,21.71,81,100,2.89,MG,1712857275
281,murashi,59.3999,48.9615,7.42,77,50,6.1,RU,1712857276
282,zabid,14.1951,43.3152,30.51,63,23,2.84,YE,1712857276
283,pervomayskiy,53.2485,40.2871,17.14,80,100,3.2,RU,1712857277
284,pizarro,4.9533,-77.366,28.88,73,71,2.91,CO,1712857278
285,quellon,-43.1167,-73.6167,13.08,54,0,1.69,CL,1712857278
286,hancheng,32.5186,112.3522,12.99,92,20,1.66,CN,1712857279
287,tuma,55.148,40.5537,10.87,73,94,2.29,RU,1712857280
288,sandy point town,17.35,-62.8333,27.15,83,75,8.23,KN,1712857281
289,kerikeri,-35.2268,173.9474,19.39,95,79,1.41,NZ,1712857282
290,urengoy,65.9667,78.3667,-23.48,99,17,4.07,RU,1712857282
291,tura,25.5198,90.2201,25.39,32,100,1.17,IN,1712857283
292,nafplio,37.5683,22.8053,18.08,46,100,2.73,GR,1712857284
293,papatowai,-46.5619,169.4708,7.34,89,100,3.08,NZ,1712857285
294,quatre cocos,-20.2078,57.7625,26.72,87,40,1.89,MU,1712857286
295,san pedro pochutla,15.7333,-96.4667,30.84,45,13,4.1,MX,1712857286
296,umm kaddadah,13.6017,26.6876,28.85,10,68,5.42,SD,1712857287
297,ambon,-3.6954,128.1814,28.26,95,40,1.03,ID,1712857288
298,el granada,37.5027,-122.4694,25.32,73,20,2.06,US,1712857135
299,selfoss,63.9331,-20.9971,5.58,98,100,4.94,IS,1712857289
300,saint-paul,-21.0096,55.2707,27.06,78,81,2.86,RE,1712857290
301,nyrob,60.733,56.7202,6.61,92,100,4.41,RU,1712857290
302,yarkovo,57.4028,67.0786,0.22,71,75,3.48,RU,1712857291
303,saint-philippe,-21.3585,55.7679,26.77,86,80,2.05,RE,1712857292
304,pacific grove,36.6177,-121.9166,22.99,80,0,4.02,US,1712857141
305,ta`u,-14.2336,-169.5144,28.4,81,17,4.18,AS,1712857293
306,turaif,31.6725,38.6637,19.14,32,40,3.09,SA,1712857294
307,saldanha,-33.0117,17.9442,23.03,64,2,5.52,ZA,1712857295
308,maceio,-9.6658,-35.7353,31.69,70,40,5.14,BR,1712857067
309,stiens,53.2623,5.7577,14.99,81,100,4.63,NL,1712857296
310,matsuto,36.5167,136.5667,11.85,82,75,1.03,JP,1712857297
311,mana,5.6592,-53.7767,29.09,71,62,4.73,GF,1712857297
312,buala,-8.145,159.5921,26.81,83,85,2.48,SB,1712857298
313,livingston,55.9029,-3.5226,15.67,72,20,10.8,GB,1712857150
314,sur,22.5667,59.5289,30.74,46,73,4.73,OM,1712857299
315,sao vicente,-23.9631,-46.3919,29.1,66,100,1.54,BR,1712857171
316,monrovia,6.3005,-10.7969,30.87,79,90,4.49,LR,1712857301
317,lebu,-37.6167,-73.65,15.05,59,0,2.97,CL,1712857302
318,dudinka,69.4058,86.1778,-25.77,100,60,3.09,RU,1712857302
319,luau,-10.7073,22.2247,21.14,87,87,0.62,AO,1712857304
320,coahuayana de hidalgo,18.7,-103.6583,31.26,40,0,3.53,MX,1712857305
321,fort mcmurray,56.7268,-111.381,10.77,43,20,5.66,CA,1712857015
322,susuman,62.7833,148.1667,-20.01,100,99,0.45,RU,1712857306
323,haiku-pauwela,20.9219,-156.3051,23.43,82,100,6.26,US,1712857307
324,volosovo,59.4333,29.4833,9.68,82,100,5.68,RU,1712857308
325,leer,53.2316,7.461,14.41,95,100,3.93,DE,1712857310
326,leh,34.1667,77.5833,-8.92,84,89,1.91,IN,1712857310
327,nova sintra,14.8667,-24.7167,22.86,73,6,6.42,CV,1712857313
328,looe,50.3578,-4.4542,13.86,95,98,5.5,GB,1712857314
329,prado,-17.3411,-39.2208,28.8,68,44,3.83,BR,1712857314
330,cuiaba,-15.5961,-56.0967,26.96,83,75,3.09,BR,1712857275
331,ust-tsilma,65.441,52.1498,1.45,99,100,7.6,RU,1712857316
332,kaga bandoro,6.9896,19.1874,33.65,30,90,1.73,CF,1712857316
333,formosa do rio preto,-11.0483,-45.1931,31.22,50,57,2.11,BR,1712857317
334,new norfolk,-42.7826,147.0587,10.72,85,92,1.31,AU,1712857060
335,honiara,-9.4333,159.95,25.93,89,93,1.58,SB,1712857318
336,loreto,22.2667,-101.9667,23.05,20,15,5.72,MX,1712857319
337,funafuti,-8.5243,179.1942,28.0,94,40,1.03,TV,1712857320
338,voi,-3.3945,38.563,25.76,80,75,3.39,KE,1712857320
339,galeana,24.8333,-100.0667,18.37,23,14,4.35,MX,1712857321
340,swan hill,-35.3378,143.5544,11.01,76,0,2.74,AU,1712857322
341,salalah,17.0151,54.0924,28.05,74,75,3.09,OM,1712857323
342,saint-martin-des-champs,48.5833,-3.8333,18.42,52,0,5.14,FR,1712857324
343,cockburn town,21.4612,-71.1419,25.32,73,10,7.32,TC,1712857056
344,serowe,-22.3833,26.7167,19.05,59,63,5.98,BW,1712857325
345,urumqi,43.801,87.6005,13.53,44,0,2.0,CN,1712857326
346,sonoita,31.85,-112.8333,27.7,11,0,2.01,MX,1712857327
347,votkinsk,57.0486,53.9872,13.75,79,100,8.83,RU,1712857328
348,riberalta,-10.9833,-66.1,32.11,66,75,3.09,BO,1712857328
349,glace bay,46.1969,-59.957,10.74,45,0,7.2,CA,1712857329
350,topolobampo,25.6,-109.05,24.95,33,75,0.0,MX,1712857330
351,basudebpur,21.1353,86.7386,29.12,40,95,1.6,IN,1712857331
352,borisoglebskiy,57.2586,39.1508,9.82,57,8,4.2,RU,1712857332
353,varna,43.2167,27.9167,16.85,77,0,1.54,BG,1712857332
354,cheney,47.4874,-117.5758,11.88,61,100,2.57,US,1712857165
355,codrington,-38.2667,141.9667,13.53,66,100,2.54,AU,1712857334
356,atafu village,-8.5421,-172.5159,29.2,74,51,2.2,TK,1712857334
357,queenstown,-31.8976,26.8753,7.23,69,0,1.7,ZA,1712857335
358,sydney mines,46.2367,-60.2177,10.86,42,0,7.2,CA,1712857336
359,port blair,11.6667,92.75,29.02,84,82,1.03,IN,1712857336
360,guarapari,-20.6667,-40.4975,29.38,72,15,2.84,BR,1712857136
361,valledupar,10.4631,-73.2532,35.83,38,20,5.14,CO,1712857338
362,vallenar,-28.5708,-70.7581,26.89,30,86,3.43,CL,1712857338
363,belomorsk,64.5232,34.7668,3.89,74,43,7.71,RU,1712857340
364,tazovsky,67.4667,78.7,-24.97,97,22,3.97,RU,1712857341
365,puerto aysen,-45.4,-72.7,14.98,54,1,1.57,CL,1712857220
366,atlantic,39.4668,-74.6663,22.41,85,100,6.69,US,1712857343
367,kirkuk,35.4681,44.3922,17.52,60,88,3.51,IQ,1712857343
368,fortaleza,-3.7227,-38.5247,31.71,87,75,4.12,BR,1712857114
369,mil'kovo,55.6078,37.7956,14.08,54,38,3.52,RU,1712857345
370,pangody,65.85,74.4859,-18.2,86,78,7.44,RU,1712857346
371,gizo,-8.103,156.8419,28.28,78,78,2.83,SB,1712857347
372,san luis de la loma,17.2706,-100.8939,29.97,56,0,4.18,MX,1712857347
373,nazyvayevsk,55.5698,71.3529,-1.68,96,68,1.56,RU,1712857348
374,napanee,44.2501,-76.9494,14.02,97,100,6.62,CA,1712857350
375,al ghayzah,16.2079,52.176,27.71,71,77,6.21,YE,1712857350
376,fort st. john,56.2499,-120.8529,4.94,56,75,4.63,CA,1712857204
377,chui,-33.6971,-53.4616,18.52,57,86,4.12,UY,1712857352
378,karratha,-20.7377,116.8463,27.1,73,0,4.02,AU,1712857352
379,emerald,-23.5333,148.1667,12.97,63,0,3.82,AU,1712857353
380,bardai,11.65,7.2333,33.62,8,56,3.88,NG,1712857354
381,palmas,-10.2128,-48.3603,25.93,94,40,1.54,BR,1712857056
382,bay city,43.5945,-83.8889,10.18,92,100,8.75,US,1712857086
383,alexander city,32.944,-85.9539,21.22,68,75,6.17,US,1712857352
384,al burayqah,30.4062,19.5739,19.06,59,100,5.66,LY,1712857357
385,alofi,-19.0595,-169.9187,20.94,100,20,0.51,NU,1712857358
386,sabang,5.8933,95.3214,29.64,71,54,6.86,ID,1712857358
387,mlangali,-9.7833,34.5167,16.37,94,61,2.11,TZ,1712857359
388,walvis bay,-22.9575,14.5053,18.53,77,0,2.57,NA,1712857360
389,coristanco,43.2,-8.75,27.5,57,78,0.81,ES,1712857361
390,hilo,19.7297,-155.09,22.57,99,100,3.6,US,1712857316
391,hammerfest,70.6634,23.6821,1.25,93,75,7.2,NO,1712857363
392,sale,34.0389,-6.8166,29.8,29,26,5.14,MA,1712857363
393,korla,41.7597,86.1469,17.99,24,39,3.22,CN,1712857364
394,broome,42.2506,-75.833,17.43,84,100,7.2,US,1712857365
395,cambria,35.5641,-121.0808,23.01,65,3,1.59,US,1712857366
396,novoagansk,61.9449,76.6625,-20.7,97,45,3.06,RU,1712857367
397,rochester,43.1548,-77.6156,19.64,75,100,4.63,US,1712857125
398,labrador city,52.9463,-66.9114,3.95,60,100,6.17,CA,1712857209
399,nadym,65.5333,72.5167,-13.91,73,99,10.09,RU,1712857369
400,ciudad lazaro cardenas,17.9583,-102.2,28.57,56,0,3.82,MX,1712857369
401,bodaybo,57.8506,114.1933,-4.61,98,90,1.16,RU,1712857370
402,homer,59.6425,-151.5483,2.94,74,100,4.02,US,1712857371
403,kayangel,8.0823,134.7173,27.76,75,31,5.74,PW,1712857371
404,keshorai patan,25.3,75.9333,29.16,33,51,3.09,IN,1712857372
405,zhezqazghan,47.7833,67.7667,4.75,54,22,6.8,KZ,1712857373
406,khorinsk,52.1657,109.7726,0.88,84,73,1.15,RU,1712857374
407,barra,-11.0894,-43.1417,32.14,46,59,2.38,BR,1712857375
408,dundaga,57.5167,22.35,6.86,93,100,7.25,LV,1712857375
409,khadan khak,30.7477,67.7085,18.35,32,90,3.88,PK,1712857376
410,gulf shores,30.246,-87.7008,21.43,75,100,8.23,US,1712857091
411,katsuren-haebaru,26.3369,127.8719,20.43,93,0,2.06,JP,1712857377
412,malasila,6.9439,125.1294,23.05,87,93,1.0,PH,1712857378
413,hadibu,12.65,54.0333,28.24,76,5,2.02,YE,1712857379
414,vladimir,56.1366,40.3966,10.64,65,37,3.13,RU,1712857379
415,geraldton,-28.7667,114.6,21.23,60,57,7.2,AU,1712857380
416,papao,-17.75,-149.55,27.82,83,57,8.68,PF,1712857381
417,riyadh,24.6877,46.7219,27.08,49,33,5.42,SA,1712857108
418,tan-tan,28.438,-11.1032,31.97,22,0,10.29,MA,1712857383
419,dharmavaram,14.4333,77.7167,29.77,50,3,6.13,IN,1712857384
420,haimen,23.1935,116.6142,19.94,89,54,1.48,CN,1712857384
421,saint-pierre,-21.3393,55.4781,26.82,74,0,1.03,RE,1712857385
422,marquette,46.5333,-87.6335,14.87,59,100,0.45,US,1712857386
423,north bend,43.4065,-124.2243,12.18,71,75,1.54,US,1712857386
424,nevada,39.2502,-116.7512,12.62,26,3,2.34,US,1712857387
425,el bayadh,33.6832,1.0193,13.14,27,2,9.9,DZ,1712857389
426,daru,-9.0763,143.2092,26.96,83,96,7.16,PG,1712857390
427,potosi,-19.5836,-65.7531,17.48,42,40,0.0,BO,1712857390
428,fale old settlement,-9.3852,-171.2468,29.16,74,74,1.93,TK,1712857391
429,vernon,50.2581,-119.2691,10.89,51,100,2.06,CA,1712857235
430,ryotsu-minato,38.0833,138.4333,11.29,60,100,1.27,JP,1712857392
431,port-vila,-17.7338,168.3219,25.0,86,36,0.77,VU,1712857393
432,bakanas,44.8081,76.2772,14.35,53,67,3.58,KZ,1712857394
433,paramonga,-10.6667,-77.8333,24.85,72,93,4.79,PE,1712857394
434,anloga,5.7947,0.8973,29.21,78,100,6.79,GH,1712857396
435,mityana,0.4175,32.0228,18.89,97,83,1.05,UG,1712857396
436,sint michiel liber,12.15,-68.9833,31.9,55,20,7.2,CW,1712857397
437,fortuna,40.5982,-124.1573,12.03,88,100,1.54,US,1712857398
438,mount isa,-20.7333,139.5,12.87,58,0,3.09,AU,1712857399
439,lemvig,56.5486,8.3102,10.67,92,55,5.76,DK,1712857399
440,sainte-rose,16.3324,-61.6979,31.02,58,29,5.66,GP,1712857401
441,dem'yanovo,60.3511,47.0842,6.83,74,28,5.54,RU,1712857401
442,tamanrasset,22.785,5.5228,29.95,7,0,5.66,DZ,1712857402
443,taltal,-25.4,-70.4833,20.4,72,52,3.67,CL,1712857221
444,mancora,-4.1078,-81.0475,27.88,67,68,3.88,PE,1712857404
445,rosarito,32.3333,-117.0333,25.29,66,0,3.57,MX,1712857118
446,forster,-32.1667,152.5167,11.83,100,65,3.79,AU,1712857405
447,alpena,45.0617,-83.4327,11.18,62,100,2.06,US,1712857133
448,khovd,48.0056,91.6419,6.49,48,40,0.98,MN,1712857406
449,bandon,51.7469,-8.7425,11.77,94,98,8.46,IE,1712857407
450,borzya,50.3833,116.5167,6.52,82,83,2.99,RU,1712857408
451,jalqani,12.4486,34.2186,34.16,8,36,4.06,SD,1712857409
452,morag,53.9171,19.926,14.31,57,100,5.19,PL,1712857409
453,carutapera,-1.195,-46.02,29.19,80,71,2.52,BR,1712857410
454,saurimo,-9.6608,20.3916,22.42,83,96,0.72,AO,1712857411
455,zhengjiatun,43.5064,123.5064,13.38,68,55,9.05,CN,1712857412
456,bouca,6.5105,18.2733,27.79,56,72,1.9,CF,1712857412
457,el triunfo,-1.9333,-79.9667,34.02,60,62,1.02,EC,1712857413
458,pemangkat,1.1667,108.9667,25.81,89,100,2.41,ID,1712857414
459,rio grande,-32.035,-52.0986,22.06,58,100,6.77,BR,1712857155
460,ghat,24.9647,10.1728,31.94,10,12,6.21,LY,1712857415
461,sabzevar,36.2126,57.6819,15.56,62,26,3.18,IR,1712857416
462,callao,-12.0667,-77.15,24.16,78,0,3.09,PE,1712857341
463,gowurdak,37.8124,66.0466,23.86,34,100,2.92,TM,1712857417
464,igrim,63.1906,64.4162,-2.36,96,100,7.72,RU,1712857418
465,tidjikja,18.5564,-11.4271,39.0,10,4,5.27,MR,1712857419
466,kolonia town,6.964,158.206,26.0,94,100,1.03,FM,1712857419
467,pasni,25.2631,63.471,26.15,79,55,3.27,PK,1712857420
468,strathalbyn,-35.2667,138.9,12.28,88,4,1.2,AU,1712857421
469,remire-montjoly,4.9167,-52.2667,31.02,74,75,6.17,GF,1712857421
470,novodvinsk,64.4165,40.8122,5.86,97,100,8.0,RU,1712857422
471,siquirres,10.0975,-83.5066,30.64,67,87,2.25,CR,1712857423
472,boguchany,58.3814,97.4531,-4.52,87,100,0.89,RU,1712857424
473,saint-leu,-21.15,55.2833,26.48,79,86,1.42,RE,1712857424
474,priozersk,61.0393,30.1291,6.67,81,86,7.26,RU,1712857425
475,kem',64.9555,34.5793,3.4,77,51,9.03,RU,1712857426
476,shakawe,-18.3667,21.85,23.15,38,79,2.27,BW,1712857426
477,bodo,67.28,14.405,4.02,70,75,4.63,NO,1712857427
478,kuala lipis,4.1842,102.0468,23.81,83,99,0.45,MY,1712857428
479,al kharijah,25.4514,30.5464,23.96,24,61,4.2,EG,1712857428
480,macau,22.2006,113.5461,25.4,94,40,2.57,MO,1712857429
481,tafuna,-14.3358,-170.72,28.97,79,75,2.06,AS,1712857430
482,al muwayh,22.4333,41.7583,27.11,12,2,5.72,SA,1712857431
483,khash,28.2211,61.2158,24.52,29,77,10.59,IR,1712857431
484,deshnoke,27.8,73.35,28.66,28,87,5.71,IN,1712857432
485,vilyuysk,63.7553,121.6247,-16.67,90,100,3.58,RU,1712857433
486,klaksvik,62.2266,-6.589,8.51,89,65,13.39,FO,1712857433
487,lompoc,34.6391,-120.4579,27.14,64,0,1.54,US,1712857434
488,cedeira,43.6797,-8.0209,19.1,86,87,4.62,ES,1712857435
489,kristiansund,63.1115,7.732,10.03,93,75,14.92,NO,1712857436
490,nuuk,64.1835,-51.7216,-1.66,86,100,2.06,GL,1712857288
491,kone,-21.0595,164.8658,22.58,90,99,1.79,NC,1712857438
492,hemsby,52.6971,1.6918,18.13,77,99,4.64,GB,1712857439
493,palikir - national government center,6.9248,158.1611,25.41,94,100,1.03,FM,1712857180
494,vitebsk,55.1905,30.2033,9.64,58,21,3.47,BY,1712857440
495,madang,-5.2246,145.7966,24.96,91,100,1.72,PG,1712857441
496,vikhorevka,56.1201,101.1636,-0.23,89,81,0.6,RU,1712857441
497,at taj,24.2049,23.2857,23.18,16,50,4.09,LY,1712857443
498,sant'ilario d'enza,44.7625,10.4481,19.91,56,0,1.54,IT,1712857444
499,city of balikpapan,-1.242,116.8942,24.87,91,100,2.27,ID,1712857445
500,vanimo,-2.6741,141.3028,25.57,91,96,1.91,PG,1712857446
501,sao joao da barra,-21.6403,-41.0511,33.05,78,0,4.23,BR,1712857446
502,vila do maio,15.1333,-23.2167,27.44,75,7,6.63,CV,1712857447
503,gasa,31.5,34.4667,18.33,81,0,2.95,PS,1712857448
504,komsomol'skiy,43.9783,46.6985,13.26,53,35,2.43,RU,1712857448
505,antofagasta,-23.65,-70.4,21.6,74,92,3.43,CL,1712857323
506,yoloten,37.2989,62.3597,24.42,26,78,5.17,TM,1712857450
507,fisterra,42.9049,-9.2629,19.86,75,91,1.82,ES,1712857450
508,laurel,39.0993,-76.8483,22.43,75,75,6.17,US,1712857313
509,san juan de miraflores,-12.1629,-76.9635,23.29,74,58,3.05,PE,1712857452
510,zakamensk,50.3741,103.2863,1.76,82,77,1.1,RU,1712857452
511,saiha,22.4833,92.9667,21.69,36,31,1.78,IN,1712857454
512,karachi,24.9056,67.0822,25.9,65,0,2.06,PK,1712857455
513,mauganj,24.6833,81.8833,28.33,37,2,6.51,IN,1712857455
514,vytegra,61.0064,36.4481,7.42,72,6,7.6,RU,1712857456
515,fada,9.5667,8.3,31.26,11,34,1.89,NG,1712857457
516,maintirano,-18.0667,44.0167,28.16,76,100,5.42,MG,1712857457
517,nema,57.5067,50.5011,10.12,87,100,5.31,RU,1712857458
518,kiama,-34.6833,150.8667,16.11,90,2,2.79,AU,1712857459
519,necochea,-38.5473,-58.7368,14.49,50,98,4.55,AR,1712857280
520,fort bragg,35.139,-79.006,24.08,76,100,6.69,US,1712857460
521,harnosand,62.6323,17.9379,5.0,99,100,3.12,SE,1712857461
522,fort riley north,39.1108,-96.8139,15.45,27,20,8.23,US,1712857356
523,lido di ostia,41.7321,12.2765,19.58,54,0,4.63,IT,1712857462
524,padang,-0.9492,100.3543,28.03,81,100,2.77,ID,1712857463
525,hanceville,34.0607,-86.7675,20.84,93,73,5.95,US,1712857463
526,carnarvon,-24.8667,113.6333,21.92,63,100,11.99,AU,1712857465
527,biloela,-24.4167,150.5,16.51,81,0,2.72,AU,1712857466
528,toliara,-23.35,43.6667,24.35,74,100,4.82,MG,1712857467
529,san agustin de valle fertil,-30.6335,-67.4682,10.56,76,100,2.18,AR,1712857468
530,kamloops,50.6665,-120.3192,9.21,54,100,6.17,CA,1712857410
531,raduzhny,62.0961,77.475,-21.96,97,40,2.59,RU,1712857469
532,nova vicosa,-17.8919,-39.3719,28.36,69,22,3.93,BR,1712857469
533,las veredas,23.1388,-109.7075,29.52,31,40,2.06,MX,1712857470
534,areia branca,-4.9561,-37.1369,33.11,71,90,3.86,BR,1712857471
535,swift current,50.2834,-107.8014,8.45,27,0,3.6,CA,1712857217
536,kiruna,67.8557,20.2251,0.51,75,20,1.03,SE,1712857472
537,hovd,48.0056,91.6419,6.49,48,40,0.98,MN,1712857473
538,tutzing,47.9094,11.2803,13.68,68,0,2.06,DE,1712857473
539,natchitoches,31.7668,-93.1335,21.47,52,0,5.14,US,1712857474
540,mission,26.2159,-98.3253,30.51,24,0,2.06,US,1712857176
541,bei'an,24.5399,109.533,22.1,95,100,0.81,CN,1712857475
542,aswan,24.0934,32.907,29.61,14,0,2.57,EG,1712857476
543,mlyniv,50.509,25.6168,14.4,65,48,2.59,UA,1712857477
544,rehoboth,-23.3167,17.0833,23.14,24,7,4.68,NA,1712857478
545,corner brook,48.9667,-57.9484,10.09,43,1,3.48,CA,1712857478
546,ishim,56.1128,69.4902,-0.54,78,40,1.79,RU,1712857479
547,nangomba,-10.9,38.5,24.56,92,100,0.93,TZ,1712857480
548,chifeng,42.2683,118.9636,18.12,43,70,7.57,CN,1712857481
549,bandikui,27.05,76.5667,28.06,26,88,0.5,IN,1712857482
550,quva,40.522,72.0729,17.62,33,99,1.7,UZ,1712857482
551,naliya,23.2667,68.8333,25.69,79,8,5.21,IN,1712857483
552,sao tome,0.3365,6.7273,26.77,81,100,3.96,ST,1712857484
553,muncar,-8.4333,114.3333,23.27,93,100,1.53,ID,1712857485
554,kachug,53.9606,105.8817,-1.13,91,97,1.57,RU,1712857485
555,burang,30.25,81.1667,-6.81,94,60,1.19,CN,1712857486
556,smidovich,48.6,133.8167,8.38,70,59,1.23,RU,1712857486
557,clifton,40.8584,-74.1638,17.87,77,100,4.12,US,1712857443
558,sidrolandia,-20.9319,-54.9614,27.66,72,95,2.19,BR,1712857488
559,mossel bay,-34.1831,22.146,13.96,74,0,3.85,ZA,1712857489
560,kourou,5.1552,-52.6478,31.03,74,66,3.45,GF,1712857489
561,angaur state,6.906,134.13,28.19,73,39,5.69,PW,1712857490
562,nanning,22.8167,108.3167,24.25,92,90,3.81,CN,1712857491
563,birobidzhan,48.8,132.95,7.68,66,92,2.09,RU,1712857491
564,zhigalovo,54.8097,105.1578,-1.94,97,96,0.69,RU,1712857492
565,jaleshwar,26.6471,85.8008,27.48,17,0,1.76,NP,1712857493
566,woolgoolga,-30.1106,153.2007,18.93,79,17,5.45,AU,1712857493
567,sal rei,16.1833,-22.9167,24.11,64,20,4.12,CV,1712857494
568,nuku'alofa,-21.1333,-175.2,24.19,94,40,0.51,TO,1712857425
569,port lincoln,-34.7333,135.8667,13.74,75,13,2.73,AU,1712857497
570,enewetak,11.3474,162.3373,26.84,80,84,10.54,MH,1712857497
571,yanqul,23.5905,56.5501,30.79,31,47,2.86,OM,1712857498
572,ankazoabo,-22.2833,44.5167,20.93,82,99,3.83,MG,1712857499
573,lucas,41.6501,-83.6666,16.16,93,100,2.06,US,1712857499
574,bainbridge,47.6262,-122.5212,13.33,71,0,2.68,US,1712857330
575,kamaishi,39.2667,141.8833,9.12,88,100,2.66,JP,1712857501
576,lerwick,60.1545,-1.1494,10.0,83,49,8.02,GB,1712857502
577,santa cruz,-17.8,-63.1667,27.7,73,75,7.2,BO,1712857502
578,quzhou,28.9594,118.8686,17.39,98,96,0.54,CN,1712857503
579,yerkoy,39.6381,34.4672,14.02,69,55,3.02,TR,1712857504
580,syktyvkar,61.6764,50.8099,7.85,66,40,8.05,RU,1712857505
581,ulladulla,-35.35,150.4667,10.43,82,61,2.08,AU,1712857505
582,loiza,18.4313,-65.8802,30.0,71,40,8.75,PR,1712857507
583,ponta delgada,37.7333,-25.6667,18.44,77,20,2.57,PT,1712857508
584,puerto santa,-8.9906,-78.6456,24.58,74,71,4.17,PE,1712857508
585,north liberty,41.7492,-91.598,17.65,50,75,9.26,US,1712857509
586,oranjemund,-28.55,16.4333,25.76,34,1,6.7,NA,1712857510
587,zuni pueblo,35.0725,-108.8506,15.35,18,3,0.52,US,1712857511
